event_id,event_name,city,country,latitude,longitude,start_date,end_date,est_deaths_low,est_deaths_high,est_injured,day_temp_C,decade_mean_temp_C,anomaly_C,temp_data_source,event_data_source,era,qualitative_weather,notes
1789_bastille,Storming of the Bastille,Paris,France,48.86,2.35,1789-07-14,1789-07-14,98,98,73,NA,19.8,NA,Paris Observatory daily series 1659+ (not retrievable in this session); HadCET monthly snippet indicates 1789 annual mean ~8.90 C,https://en.wikipedia.org/wiki/Storming_of_the_Bastille ; https://www.britannica.com/event/storming-of-the-Bastille,era1_1750_1850,hot afternoon,"Contemporary accounts describe a hot afternoon; preceded by exceptionally hot dry summer 1788 (Neumann BAMS 1990). Paris Observatory daily record exists but inaccessible from sandbox."
1789_versailles_march,Women's March on Versailles,Versailles,France,48.80,2.13,1789-10-05,1789-10-06,50,99,NA,NA,12.3,NA,Paris Observatory daily series 1659+ (not retrievable),https://en.wikipedia.org/wiki/Women%27s_March_on_Versailles ; https://www.worldhistory.org/Women's_March_on_Versailles/,era1_1750_1850,pouring rain,"Primary accounts: six hours of marching in pouring rain; fifteen miles of mud and rain. Cool wet day likely below seasonal mean."
1791_bois_caiman,Bois Caiman / start of Haitian slave revolt,Cap-Haitien,Haiti,19.76,-72.21,1791-08-22,1791-08-23,4000,15000,NA,NA,27.5,NA,No instrumental temperature series for Saint-Domingue 1791 known to exist,https://en.wikipedia.org/wiki/Haitian_Revolution ; https://en.wikipedia.org/wiki/Bois_Ca%C3%AFman,era1_1750_1850,tropical storm with thunder and lightning,"Casualties: first night unknown; within 2 months ~4,000 whites killed by insurgents, ~15,000 Black people killed by colonial forces. Daytime tropical August at this latitude consistently ~26-28 C."
1792_tuileries,Storming of the Tuileries,Paris,France,48.86,2.35,1792-08-10,1792-08-10,1200,1200,300,NA,20.6,NA,Paris Observatory daily series 1659+ (not retrievable),https://en.wikipedia.org/wiki/Insurrection_of_10_August_1792 ; https://www.worldhistory.org/Storming_of_the_Tuileries_Palace/,era1_1750_1850,NA,"~600 Swiss Guards + ~200 royal staff/loyalists + ~400 attackers ~1,200. No specific weather note in snippets."
1792_september_massacres,September Massacres,Paris,France,48.86,2.35,1792-09-02,1792-09-06,1176,1614,NA,NA,16.9,NA,Paris Observatory daily series 1659+ (not retrievable),https://en.wikipedia.org/wiki/September_Massacres ; https://www.britannica.com/event/September-Massacres,era1_1750_1850,NA,Multi-day event; no specific contemporary weather citation found.
1794_whiskey_rebellion,Whiskey Rebellion (Battle of Bower Hill),Pittsburgh,USA,40.44,-79.99,1794-07-16,1794-07-17,5,7,5,NA,22.6,NA,No daily record found; Jefferson weather diary covers Monticello VA not PA,https://en.wikipedia.org/wiki/Whiskey_Rebellion ; https://www.mountvernon.org/george-washington/the-first-president/whiskey-rebellion,era1_1750_1850,NA,Overall rebellion 1791-1794 with Bower Hill skirmish in July 1794. Very low casualty event for the scale of the unrest.
1794_reign_of_terror_peak,Reign of Terror peak (Great Terror under Law of 22 Prairial),Paris,France,48.86,2.35,1794-06-10,1794-07-27,1376,1376,NA,NA,19.8,NA,Paris Observatory daily series 1659+ (not retrievable); warmest CET July in era was 1783 (18.8 C); July 1794 cooler but no exact value located,https://en.wikipedia.org/wiki/Reign_of_Terror ; https://www.britannica.com/event/Reign-of-Terror,era1_1750_1850,NA,"~1,376 guillotined in Paris over 47 days (~30/day). Window-event rather than single day."
1798_irish_rebellion,Irish Rebellion of 1798,Wexford,Ireland,52.34,-6.46,1798-05-23,1798-09-23,10000,30000,NA,NA,14.5,NA,HadCET monthly available but daily value at Wexford not retrievable,https://en.wikipedia.org/wiki/Irish_Rebellion_of_1798 ; https://www.nam.ac.uk/explore/irish-rebellion-1798,era1_1750_1850,NA,"Consensus mid-range 10,000-30,000; high estimates to 70,000. Multi-month conflict; cannot be assigned a single-day temperature."
1800_gabriels_rebellion,Gabriel's Rebellion (planned suppressed),Richmond,USA,37.54,-77.44,1800-08-30,1800-08-30,27,27,0,NA,25.6,NA,Jefferson weather diary at Monticello covers this period but not retrievable,https://en.wikipedia.org/wiki/Gabriel%27s_Rebellion ; https://encyclopediavirginia.org/entries/gabriels-conspiracy-1800/,era1_1750_1850,heavy rainstorm,"0 on the night; 27 later executed including Gabriel. Sources note the planned uprising was defeated by a heavy rainstorm that made roads impassable on the night of 30 Aug 1800."
1819_peterloo,Peterloo Massacre,Manchester,England,53.48,-2.24,1819-08-16,1819-08-16,18,18,400,NA,14.9,NA,HadCET daily series 1772+ contains this date but file not retrievable,https://en.wikipedia.org/wiki/Peterloo_Massacre ; https://www.bbc.co.uk/news/uk-england-manchester-49255029,era1_1750_1850,hot summer's day with a cloudless blue sky,"Contemporary accounts: Monday 16 August 1819 was a hot summer's day with a cloudless blue sky. Best candidate for quantifiable positive anomaly once HadCET daily file is loaded."
1823_demerara,Demerara slave rebellion,Georgetown,Guyana,6.80,-58.16,1823-08-18,1823-08-20,200,500,NA,NA,26.7,NA,No instrumental temperature series for Demerara 1823 known to exist,https://en.wikipedia.org/wiki/Demerara_rebellion_of_1823 ; https://blackpast.org/global-african-history/demerara-rebellion-1823/,era1_1750_1850,NA,"200-500 enslaved people killed in suppression; 45 sentenced to death, 27 executed. Tropical lowland; daily variability small (~2-3 C)."
1825_decembrist,Decembrist Uprising,Saint Petersburg,Russia,59.93,30.34,1825-12-26,1825-12-26,70,80,NA,NA,-5.5,NA,No archival access; subzero per multiple sources,https://en.wikipedia.org/wiki/Decembrist_revolt ; https://www.britannica.com/topic/Decembrist,era1_1750_1850,subzero snow-covered,"Counter-example for heat-driven hypothesis. Note: 14 Dec O.S. = 26 Dec N.S."
1831_nat_turner,Nat Turner's Rebellion,Southampton County,USA,36.72,-77.10,1831-08-21,1831-08-23,55,176,NA,NA,25.3,NA,Jefferson Monticello weather diary ends 1826; no nearby daily station identified for August 1831,https://en.wikipedia.org/wiki/Nat_Turner%27s_Rebellion ; https://encyclopediavirginia.org/entries/turners-revolt-nat-1831/,era1_1750_1850,NA,"~55-65 whites killed by insurgents; ~120 Black people killed in immediate suppression; ~56 later executed. Insurrection began ~02:00 local."
1848_berlin_march,Berlin March Revolution,Berlin,Prussia,52.52,13.40,1848-03-18,1848-03-19,230,900,NA,NA,4.4,NA,Berlin Tempelhof daily series exists 1719+ but not retrievable,https://en.wikipedia.org/wiki/German_revolutions_of_1848%E2%80%931849 ; https://www.deutschlandmuseum.de/en/history/calendar/1848-03-18-death-on-the-barricades/,era1_1750_1850,NA,Casualty estimates: 230 immediate / 400 lower / 900 upper. No specific weather citation found.
1848_milan_five_days,Five Days of Milan,Milan,Italy,45.46,9.19,1848-03-18,1848-03-22,400,800,600,NA,8.6,NA,No archival access in this session; Brera Observatory Milan has records back to ~1763,https://en.wikipedia.org/wiki/Five_Days_of_Milan ; https://sites.ohio.edu/chastain/ip/milanfiv.htm,era1_1750_1850,NA,"~400 Milanese killed + ~400 Austrian killed/wounded; ~600 Milanese injured. No specific weather citation in snippets."
1848_june_days,June Days uprising,Paris,France,48.86,2.35,1848-06-22,1848-06-26,1500,3000,NA,NA,17.9,NA,Paris Observatory daily series 1659+ (not retrievable),https://en.wikipedia.org/wiki/June_Days_uprising ; https://www.britannica.com/event/June-Days,era1_1750_1850,NA,~1500-3000 insurgents + ~1500 troops killed/wounded. Many thousands injured.
1848_vienna_october,Vienna October Uprising,Vienna,Austria,48.21,16.37,1848-10-06,1848-10-31,2000,2000,NA,NA,10.1,NA,Vienna Hohe Warte/Stephansplatz daily series goes back to 18th c. but not retrievable,https://en.wikipedia.org/wiki/Vienna_Uprising ; https://www.britannica.com/place/Austria/Revolution-and-counterrevolution-1848-59,era1_1750_1850,NA,Multi-week event; cannot be reduced to a single day.
1851_jintian,Jintian Uprising (Taiping kickoff),Jintian,China,23.40,110.08,1851-01-11,1851-01-11,NA,NA,NA,NA,11.5,NA,No early instrumental temperature series for inland Guangxi known,https://en.wikipedia.org/wiki/Jintian_Uprising ; https://www.britannica.com/event/Taiping-Rebellion,era1_1750_1850,NA,"Declaration event; rebellion proper produced 20-30 million deaths over 1851-1864. Strictly outside the 1750-1850 window by 12 days."
1857_meerut_mutiny,Sepoy Mutiny outbreak at Meerut,Meerut,India,28.98,77.71,1857-05-10,1857-05-10,50,50,NA,NA,39.0,NA,No instrumental daily record found; modern May avg max ~39 C used as proxy (biased warm),https://en.wikipedia.org/wiki/Indian_Rebellion_of_1857 ; https://www.dcmmedals.co.uk/the-mutiny-at-meerut-10th-may-1857/,era2_1850_1920,hot day,"~50 incl. ~40 European officers/civilians + Indian dead. Qualitative hot day only; period-appropriate decadal mean unavailable."
1857_siege_delhi,Siege of Delhi,Delhi,India,28.61,77.21,1857-06-08,1857-09-21,5000,5000,4493,NA,39.0,NA,Realistic daily max ~40-43 C; sources claim 140 F almost certainly exaggerated,https://en.wikipedia.org/wiki/Siege_of_Delhi ; https://historynet.com/indian-mutiny-of-1857-siege-of-delhi/,era2_1850_1920,searing heat,"Multi-month event; British alone lost ~1,254 killed and ~4,493 wounded. Assign start_date = open of siege (June 8) for index."
1857_bibighar_cawnpore,Bibighar massacre (Cawnpore),Kanpur,India,26.45,80.33,1857-07-15,1857-07-15,200,200,NA,NA,33.5,NA,No instrumental record located; modern July avg max ~33-34 C (monsoon-tempered),https://en.wikipedia.org/wiki/Siege_of_Cawnpore,era2_1850_1920,burning sun,~200 British women & children captives executed. Day 1 of monsoon onset; could be hot+humid OR cooled by rain.
1863_nyc_draft_riots,New York City Draft Riots,New York,USA,40.71,-74.01,1863-07-13,1863-07-16,119,300,2000,NA,28.5,NA,No specific daily reading retrieved; Central Park began continuous records 1869; 1863 records exist in NWS/Smithsonian archives but not retrieved,https://en.wikipedia.org/wiki/New_York_City_draft_riots ; https://warfarehistorynetwork.com/article/city-under-siege-the-new-york-draft-riots/,era2_1850_1920,breathlessly hot oppressively muggy,"Modern consensus ~120 killed; contemporary 119-300+. Heavy rain night of Jul 13 helped quench fires. Likely 30-33 C range."
1866_memphis_massacre,Memphis Massacre,Memphis,USA,35.15,-90.05,1866-05-01,1866-05-03,48,48,75,NA,27.0,NA,No daily 1866 reading located; period-appropriate decadal mean unavailable,https://en.wikipedia.org/wiki/Memphis_massacre_of_1866 ; https://www.britannica.com/event/Memphis-Race-Riot,era2_1850_1920,NA,"46 Black + 2 White killed; 75+ Black injured; 5 women raped; 91 homes burned."
1866_new_orleans_massacre,New Orleans Massacre,New Orleans,USA,29.95,-90.07,1866-07-30,1866-07-30,38,50,146,NA,32.0,NA,NWS NOLA daily archives only go back to 1945; 1866 data in Smithsonian/War Dept records but not retrieved,https://en.wikipedia.org/wiki/New_Orleans_Massacre_of_1866 ; https://www.nps.gov/articles/000/neworleansmassacre.htm,era2_1850_1920,NA,~38 (official) to ~50 (modern estimate) killed; ~146+ injured.
1871_paris_commune,Paris Commune Bloody Week (Semaine sanglante),Paris,France,48.86,2.35,1871-05-21,1871-05-28,10000,20000,NA,22.0,19.5,2.5,https://en.wikipedia.org/wiki/Fires_in_the_Paris_Commune (cites Paris Observatory records),https://en.wikipedia.org/wiki/Paris_Commune ; https://en.wikipedia.org/wiki/Semaine_sanglante,era2_1850_1920,unseasonably warm,"Best-documented event in the table. Continuous observatory record except May 24 (front line at site). Reading type = midday surface temp. Midday readings 18-25 C, rose to ~25 by May 25; ~20 on May 28. Peak days +3 to +5 C above seasonal norm. Modern Tombs/Merriman estimates 10,000-15,000; older sources 17,000-20,000+."
1900_boxer_rebellion,Boxer Rebellion - Siege of the Legations (Beijing) start,Beijing,China,39.90,116.41,1900-06-20,1900-08-14,3000,3000,500,NA,30.5,NA,No instrumental daily record located. Late June Beijing typically pre-monsoon very hot,https://en.wikipedia.org/wiki/Boxer_Rebellion ; https://en.wikipedia.org/wiki/Battle_of_Peking_(1900),era2_1850_1920,NA,"~55 foreigners + ~3,000 Chinese Christian refugees + thousands of Boxers killed in final relief."
1905_bloody_sunday,Bloody Sunday,Saint Petersburg,Russia,59.93,30.34,1905-01-22,1905-01-22,200,1000,800,NA,-7.0,NA,No daily reading; Climate of St Petersburg modern Jan avg max ~-7 C,https://en.wikipedia.org/wiki/Bloody_Sunday_(1905) ; https://www.worldhistory.org/Bloody_Sunday_in_1905/,era2_1850_1920,bitter cold morning with unusual bright January sunshine,Counter to heat-aggression hypothesis. Modern historians estimate ~200-300 killed. Snow on ground; likely below modern norm (Little Ice Age tail still active).
1910_mexican_revolution,Mexican Revolution begins (Madero's Plan de San Luis Potosi call to revolt),Mexico City,Mexico,19.43,-99.13,1910-11-20,1910-11-20,50,50,NA,NA,22.5,NA,modern Nov avg max Mexico City ~22-23 C,https://en.wikipedia.org/wiki/Mexican_Revolution ; https://www.loc.gov/exhibits/mexican-revolution-and-the-united-states/rise-of-madero.html,era2_1850_1920,NA,"November 20 symbolic start; first armed clashes were small scattered. Broader war 1910-1920 ~1-2 million deaths."
1913_decena_tragica,Decena Tragica (Ten Tragic Days),Mexico City,Mexico,19.43,-99.13,1913-02-09,1913-02-18,500,5000,NA,NA,22.5,NA,modern Feb avg max Mexico City ~22-23 C (dry season),https://en.wikipedia.org/wiki/La_decena_tragica ; https://www.encyclopedia.com/humanities/encyclopedias-almanacs-transcripts-and-maps/decena-tragica,era2_1850_1920,NA,"~500-1,000 Mexico City fighting; ~5,000 cited in some accounts including province. Cool dry season at high altitude (~2,240 m)."
1916_easter_rising,Easter Rising,Dublin,Ireland,53.35,-6.26,1916-04-24,1916-04-29,485,485,2600,12.5,11.5,1.0,https://www.kilkennyweather.com/index.php/the-weather-during-the-easter-rising-1916 ; https://www.met.ie/climate/available-data/historical-data,https://en.wikipedia.org/wiki/Easter_Rising,era2_1850_1920,dull with rain strong SW wind,"Reading type = daily max. ~485 total (132 British + Irish Volunteer/Citizen Army; ~260 civilians; ~80 rebels). Warmest day of month was surrender day (Apr 29) with 20.5 C at Waterford (not Dublin)."
1917_february_revolution,February Revolution begins,Saint Petersburg,Russia,59.93,30.34,1917-03-08,1917-03-12,1300,1500,3000,NA,-4.0,NA,Sources vary widely: 8 C / -5 C / -8 C reported; consensus is unseasonably warm,https://en.wikipedia.org/wiki/February_Revolution ; https://www.smithsonianmag.com/history/russias-february-revolution-was-led-women-march-180962218/,era2_1850_1920,unseasonably warm,"International Women's Day march triggered revolt - explicitly enabled by mild weather. Conflicting reports; instrumental verification needed."
1917_october_revolution,October Revolution (Bolshevik coup),Saint Petersburg,Russia,59.93,30.34,1917-11-07,1917-11-08,6,15,30,NA,2.0,NA,Eyewitness Raskolnikov: grey slush thin rain dank rain slippery mud; likely 0 to +5 C,https://en.wikipedia.org/wiki/October_Revolution,era2_1850_1920,grey slush thin rain dank rain slippery mud,Cold-wet event; very small immediate body count in the capital.
1917_east_st_louis,East St. Louis Massacre,East St. Louis,USA,38.62,-90.15,1917-07-02,1917-07-03,40,250,300,NA,32.0,NA,"NOAA GHCN-Daily has data for St Louis WB station in 1917 but not retrieved. July 1917 was a major US heat-wave year with >2,000 heat deaths nationally",https://en.wikipedia.org/wiki/East_St._Louis_massacre ; https://www.britannica.com/event/East-Saint-Louis-Race-Riot-of-1917,era2_1850_1920,1917 heatwave year nationally,"~40-250 (modern consensus 100-250; official 39 Black + 9 White). Likely positive anomaly given 1917 heat-wave context."
1919_chicago_red_summer,Chicago Race Riot (Red Summer),Chicago,USA,41.88,-87.63,1919-07-27,1919-08-03,38,38,537,35.0,29.0,6.0,Daily high July 27 1919 ~96 F per multiple secondary sources,https://en.wikipedia.org/wiki/Chicago_race_riot_of_1919 ; https://blackpast.org/african-american-history/chicago-race-riot-1919/,era2_1850_1920,heat wave,"Strongest positive signal in the table. Heat-aggression hypothesis directly invoked in modern historiography (Lake Michigan beach trigger). 23 Black + 15 White killed. Reading type = daily max."
1919_dc_red_summer,Washington D.C. Race Riot (Red Summer),Washington,USA,38.91,-77.04,1919-07-19,1919-07-24,15,15,150,NA,31.0,NA,NOAA GHCN data exists (GHCND:USW00093725) - not retrieved this session,https://en.wikipedia.org/wiki/Washington_race_riot_of_1919 ; https://boundarystones.weta.org/2017/04/18/red-summer-race-riot-washington-1919,era2_1850_1920,hot muggy night,"15 killed (>=10 White + ~5 Black); ~150 injured. Riot ended Jul 23 when heavy rain fell. Likely 32-35 C range."
1919_elaine_massacre,Elaine Massacre,Elaine,USA,34.31,-90.86,1919-09-30,1919-10-02,100,240,NA,NA,27.5,NA,modern Sep avg max Arkansas Delta ~27-28 C,https://en.wikipedia.org/wiki/Elaine_massacre ; https://encyclopediaofarkansas.net/entries/elaine-massacre-of-1919-1102/,era2_1850_1920,NA,~100-240 Black + 5 White (modern estimates run higher). Late September.
1919_boston_police_strike,Boston Police Strike & looting,Boston,USA,42.36,-71.06,1919-09-09,1919-09-11,9,9,30,NA,22.0,NA,modern Sep avg max Boston ~22 C,https://en.wikipedia.org/wiki/Boston_police_strike,era2_1850_1920,NA,Strike + civil disorder; cool early-autumn timing. ~9 deaths during looting/militia response.
1920_kapp_putsch,Kapp Putsch,Berlin,Germany,52.52,13.40,1920-03-13,1920-03-17,12,12,NA,NA,8.5,NA,ECA&D station BERLIN-DAHLEM (DEU000010381) would have this but was not reachable,https://en.wikipedia.org/wiki/Kapp_Putsch,era3_1920_1970,NA,~12 Berlin street fighting; thousands killed in subsequent Ruhr uprising. Recommend manual lookup.
1921_tulsa_massacre,Tulsa Race Massacre,Tulsa,USA,36.15,-95.99,1921-05-31,1921-06-01,75,300,800,NA,27.0,NA,GHCN station USW00013968 holds the record but not accessible,https://en.wikipedia.org/wiki/Tulsa_race_massacre ; https://utulsa.as.atlas-sys.com/repositories/2/archival_objects/20365,era3_1920_1970,warm,"Oklahoma Commission estimate 100-300; this row from era3 file (also appeared in era2 outside-window flag). Secondary sources describe weather only as warm. Memorial Day weekend trigger."
1923_beer_hall_putsch,Beer Hall Putsch,Munich,Germany,48.14,11.58,1923-11-08,1923-11-09,20,20,30,NA,7.5,NA,No accessible daily record,https://en.wikipedia.org/wiki/Beer_Hall_Putsch ; https://encyclopedia.ushmm.org/content/en/article/beer-hall-putsch-munich-putsch,era3_1920_1970,NA,"Indoor event (Burgerbraukeller) on the evening of Nov 8; march on Odeonsplatz was Nov 9. 16 putschists + 4 police killed."
1927_shanghai_massacre,Shanghai Massacre (April 12 Purge),Shanghai,China,31.23,121.47,1927-04-12,1927-04-15,300,400,5000,NA,20.0,NA,No accessible daily record,https://en.wikipedia.org/wiki/Shanghai_massacre,era3_1920_1970,heavy gray clouds,"300-400 killed in Shanghai (5,000-10,000 in wider purge); ~5,000 disappeared/injured."
1936_spanish_civil_war_start,Spanish Civil War start (Africa Army rising),Melilla,Spain,35.29,-2.94,1936-07-17,1936-07-18,200,200,NA,NA,29.0,NA,No daily Tmax pulled,https://en.wikipedia.org/wiki/Spanish_coup_of_July_1936,era3_1920_1970,NA,"Coup began evening of 17 July in Spanish Morocco, spread to mainland next day. ~hundreds killed in initial coup days. High summer."
1937_barcelona_may_days,Barcelona May Days,Barcelona,Spain,41.39,2.17,1937-05-03,1937-05-08,500,500,1000,NA,21.5,NA,No daily Tmax pulled,https://en.wikipedia.org/wiki/May_Days,era3_1920_1970,NA,"Anarchist-Communist street fighting inside Republican Barcelona. ~500 dead; ~1,000 injured."
1938_kristallnacht,Kristallnacht,Berlin,Germany,52.52,13.40,1938-11-09,1938-11-10,91,400,30000,NA,7.5,NA,No daily Tmax pulled,https://en.wikipedia.org/wiki/Kristallnacht ; https://encyclopedia.ushmm.org/content/en/article/kristallnacht,era3_1920_1970,NA,"~91 killed on the night (subsequent deaths in custody push toward several hundred); thousands beaten, ~30,000 arrested. Evening pogrom across many German cities."
1943_detroit_race_riot,Detroit race riot (1943),Detroit,USA,42.33,-83.05,1943-06-20,1943-06-22,34,34,700,32.8,27.5,5.3,Detroit Historical Society / Heather on History (https://heathervoight.com/2014/08/22/the-detroit-race-riots-of-1943/),https://en.wikipedia.org/wiki/1943_Detroit_race_riot ; https://www.detroithistorical.org/learn/online-research/encyclopedia-of-detroit/race-riot-1943,era3_1920_1970,temperatures had by mid-afternoon soared to 91 degrees,"34 killed (25 Black, 9 White); ~700 injured. Crowds at Belle Isle to escape heat. Extremely hot day vs decadal norm."
1943_zoot_suit_riots,Zoot Suit Riots,Los Angeles,USA,34.05,-118.24,1943-06-03,1943-06-08,0,0,150,NA,23.0,NA,No Tmax; secondary sources describe early June 1943 as sweltering,https://en.wikipedia.org/wiki/Zoot_Suit_Riots,era3_1920_1970,sweltering,0 confirmed deaths; ~150 injured. LA has cool June (marine layer) so probably moderate.
1943_warsaw_ghetto_uprising,Warsaw Ghetto Uprising,Warsaw,Poland,52.23,21.01,1943-04-19,1943-05-16,13017,13017,NA,NA,14.0,NA,ECA&D Warsaw-Okecie would have it,https://en.wikipedia.org/wiki/Warsaw_Ghetto_Uprising ; https://encyclopedia.ushmm.org/content/en/article/warsaw-ghetto-uprising,era3_1920_1970,NA,"~13,000 Jewish dead, ~17 German; thousands injured. Multi-week event; start_date alone is weak for this case."
1944_warsaw_uprising,Warsaw Uprising,Warsaw,Poland,52.23,21.01,1944-08-01,1944-10-02,166000,216000,25000,NA,24.0,NA,No daily Tmax,https://en.wikipedia.org/wiki/Warsaw_Uprising,era3_1920_1970,NA,"~16,000 Polish resistance + 150,000-200,000 civilians; ~25,000 injured. 63-day uprising; bad weather first two weeks of August prevented Allied airdrops."
1947_partition_punjab,Partition of India (Punjab massacres),Lahore,Pakistan,31.55,74.34,1947-08-15,1947-12-31,500000,2000000,NA,NA,35.0,NA,No daily Tmax; August in Punjab is hot-humid monsoon. Per-day Tmax variable,https://en.wikipedia.org/wiki/Partition_of_India ; https://www.britannica.com/event/Partition-of-India,era3_1920_1970,hot humid monsoon,"500,000-2,000,000 across the period; ~15 million displaced. Diffuse multi-month event - daily anomaly approach doesn't apply cleanly."
1956_hungarian_revolution,Hungarian Revolution start,Budapest,Hungary,47.50,19.04,1956-10-23,1956-11-10,2500,3700,13000,NA,16.5,NA,No daily Tmax from accessible sources,https://en.wikipedia.org/wiki/Hungarian_Revolution_of_1956,era3_1920_1970,NA,"~2,500-3,000 Hungarians, ~700 Soviet soldiers; ~13,000 injured. Began as peaceful student march evening of 23 Oct."
1960_sharpeville_massacre,Sharpeville Massacre,Sharpeville,South Africa,-26.68,27.87,1960-03-21,1960-03-21,69,91,180,NA,25.4,NA,Climate-Data.org Vereeniging,https://en.wikipedia.org/wiki/Sharpeville_massacre ; https://sahistory.org.za/article/sharpeville-massacre-21-march-1960,era3_1920_1970,NA,69 killed (some reports 91); ~180 injured. Late summer in Southern Hemisphere; shooting at 1:30 pm. Likely warm but no daily Tmax pulled.
1965_watts_riots,Watts Riots,Los Angeles,USA,34.05,-118.24,1965-08-11,1965-08-16,34,34,1032,33.3,28.0,5.3,Detroit's Great Rebellion / Watts retrospective ~92 F,https://en.wikipedia.org/wiki/Watts_riots ; https://blackpast.org/african-american-history/watts-rebellion-august-1965/,era3_1920_1970,middle of a heat wave,"34 killed; ~1,032 injured. August 11 1965 LA in middle of heat wave with temperatures reaching 92 F. Marquette Frye traffic stop ~7 pm. Secondary source citation; ideally cross-check GHCN."
1967_newark_riots,Newark riots,Newark,USA,40.74,-74.17,1967-07-12,1967-07-17,26,26,725,NA,29.0,NA,Newark EWR (GHCND:USW00014734) holds daily but inaccessible,https://en.wikipedia.org/wiki/1967_Newark_riots ; https://www.history.com/articles/1967-summer-riots-detroit-newark-kerner-commission,era3_1920_1970,hot summer night,26 killed; ~725 injured. Sources uniformly describe a hot summer night but give no specific Tmax. Britannica/History.com note regional heat amplified tensions. Estimated 32-34 C / 90-94 F from regional heatwave.
1967_detroit_riots,Detroit riots (12th Street),Detroit,USA,42.33,-83.05,1967-07-23,1967-07-27,43,43,1189,32.2,27.5,4.7,"Detroit's Great Rebellion (Detroit was in the middle of an oppressive heat wave on Saturday July 22 1967, with temperatures regularly approaching 90 degrees)",https://en.wikipedia.org/wiki/1967_Detroit_riot ; https://www.britannica.com/event/Detroit-Riot-of-1967,era3_1920_1970,oppressive heat wave,"43 killed; ~1,189 injured. Blind-pig raid 3:30 am July 23. Secondary source citing heatwave; cross-check GHCN USW00094847 DTW."
1968_mlk_dc_riots,MLK assassination riots (DC),Washington,USA,38.91,-77.04,1968-04-04,1968-04-08,13,13,1098,21.0,17.5,3.5,"Washington Post: 1968 riots retrospective (The day had been warm and breezy, with a high near 70 degrees)",https://en.wikipedia.org/wiki/1968_Washington_D.C._riots ; https://en.wikipedia.org/wiki/King_assassination_riots,era3_1920_1970,warm and breezy with a high near 70 degrees,"13 killed in DC; ~1,098 injured. Country-wide riots after MLK shot 7:05 pm CST Apr 4 in Memphis. DC, Baltimore, Chicago all had >100 fires."
1968_paris_may,Paris May 1968 - Night of the Barricades,Paris,France,48.86,2.35,1968-05-10,1968-05-11,0,2,367,NA,17.5,NA,No daily Tmax; Met France Montsouris station would have it,https://en.wikipedia.org/wiki/May_68 ; https://isj.org.uk/may-1968-across-the-decades/,era3_1920_1970,NA,"0 deaths directly (later 1-2 attributed); 367 hospitalised, 468 arrested. Boulevard Saint-Michel barricade fighting."
1968_prague_spring,Prague Spring crushed,Prague,Czechoslovakia,50.08,14.44,1968-08-20,1968-08-21,82,82,300,NA,23.5,NA,No daily Tmax,https://en.wikipedia.org/wiki/Warsaw_Pact_invasion_of_Czechoslovakia,era3_1920_1970,NA,~82 killed; 300 seriously wounded. Tanks rolled in shortly before midnight Aug 20.
1968_tlatelolco,Tlatelolco Massacre,Mexico City,Mexico,19.43,-99.13,1968-10-02,1968-10-02,4,3000,1000,NA,21.0,NA,No daily Tmax,https://en.wikipedia.org/wiki/Tlatelolco_massacre ; https://nsarchive2.gwu.edu/NSAEBB/NSAEBB10/nsaebb10.htm,era3_1920_1970,NA,"Modern scholarship ~300; range 4-3,000+. Began ~6 pm in Plaza de las Tres Culturas. Mild altitude climate; no obvious heat signal."
1969_stonewall,Stonewall riots,New York,USA,40.71,-74.01,1969-06-28,1969-07-03,0,0,13,35.6,28.0,7.6,"NOAA NCEI: Records, Riots, and Rights; NOAA: Friday Find - weather logs from Stonewall; AccuWeather",https://en.wikipedia.org/wiki/Stonewall_riots,era3_1920_1970,record-breaking heat,"0 deaths; ~13 arrests, several injuries. Raid 1:20 am Jun 28. NOAA: daily record high of 96 F set in Central Park June 28 1969. Strongest documented heat-aggression case in this table."
1970_kent_state,Kent State shootings,Kent,USA,41.15,-81.36,1970-05-04,1970-05-04,4,4,9,NA,19.6,NA,NOAA GHCN station USC00334395 (Akron-Canton) May Tmax 1970s normal; daily not verifiable,https://en.wikipedia.org/wiki/Kent_State_shootings,era4_1970_2000,sunny and warm,"4 killed; 9 injured. May 4 1970 sunny and warm; May 1-3 weekend first warm nights of season. Qualitative sign: positive anomaly likely."
1971_attica_prison,Attica Prison uprising,Attica,USA,42.85,-78.28,1971-09-09,1971-09-13,43,43,80,NA,23.4,NA,NOAA Buffalo-NF KBUF Sept 1970s Tmax normal,https://en.wikipedia.org/wiki/Attica_Prison_riot,era4_1970_2000,rainy (Sept 13 surrender morning),43 killed; ~80 injured. Sept 9 (takeover day) weather not documented; values needed from NCEI CDO.
1972_bloody_sunday_derry,Bloody Sunday,Derry,Northern Ireland,54.99,-7.32,1972-01-30,1972-01-30,14,14,15,NA,7.0,NA,Met Eireann/Met Office Aldergrove BT Jan 1970s Tmax normal,https://en.wikipedia.org/wiki/Bloody_Sunday_(1972),era4_1970_2000,crisp bright winter day,14 killed; 15 injured. ANTI-HEAT CASE: winter low absolute temp; day was clear so possibly mildly above cool-cloudy January norm.
1976_soweto_uprising,Soweto Uprising,Soweto,South Africa,-26.27,27.86,1976-06-16,1976-06-18,176,700,1000,NA,17.5,NA,SAWS Johannesburg O.R. Tambo June 1970s Tmax normal,https://en.wikipedia.org/wiki/Soweto_uprising ; https://sahistory.org.za/article/june-16-soweto-youth-uprising,era4_1970_2000,cold and cloudy smog-choked morning,176-700 killed; 1000+ injured. Southern-hemisphere winter. ANTI-HEAT CASE for Southern Hemisphere; uprising at seasonal temperature minimum.
1978_iran_black_friday,Black Friday (Iran),Tehran,Iran,35.69,51.39,1978-09-08,1978-09-08,88,100,205,NA,32.0,NA,IRIMO Mehrabad OIII Sept 1970s Tmax normal,https://en.wikipedia.org/wiki/Black_Friday_(1978),era4_1970_2000,NA,88-100+ killed; 205+ injured. Late summer hot continental climate. Heat-aggression-consistent prior. Daily station value needed from IRIMO archive.
1979_iranian_revolution,Iranian Revolution (final collapse),Tehran,Iran,35.69,51.39,1979-02-11,1979-02-11,300,300,3000,NA,8.5,NA,IRIMO Mehrabad Feb 1970s Tmax normal,https://en.wikipedia.org/wiki/Iranian_Revolution,era4_1970_2000,NA,Hundreds killed; thousands injured. Winter event. Anti-heat case.
1980_stpauls_riot,St Pauls riot,Bristol,UK,51.46,-2.59,1980-04-02,1980-04-02,0,0,25,NA,12.5,NA,Met Office Filton April 1980s Tmax normal,https://en.wikipedia.org/wiki/1980_St_Pauls_riot,era4_1970_2000,NA,0 deaths; ~25 injured. Weather not documented in event sources. Early April; modest anomaly expected.
1980_nm_state_penitentiary,New Mexico State Penitentiary riot,Santa Fe,USA,35.69,-105.94,1980-02-02,1980-02-03,33,33,90,NA,9.8,NA,NOAA Santa Fe KSAF Feb 1980s Tmax normal,https://en.wikipedia.org/wiki/New_Mexico_State_Penitentiary_riot,era4_1970_2000,NA,33 killed; ~90 injured. Indoor prison event; ambient cold (Santa Fe 2114 m elevation). Cold-case for hypothesis.
1980_miami_liberty_city,Miami / Liberty City riots (McDuffie),Miami,USA,25.76,-80.19,1980-05-17,1980-05-20,18,18,350,NA,29.4,NA,NOAA Miami KMIA May 1980s Tmax normal,https://en.wikipedia.org/wiki/1980_Miami_riots,era4_1970_2000,summer night,18 killed; ~350 injured. Tropical climate; verdict released afternoon May 17. Likely positive anomaly given May 1980 was warm in S Florida.
1981_brixton_riot,Brixton riot,London,UK,51.51,-0.13,1981-04-10,1981-04-12,0,0,324,NA,12.7,NA,Met Office Heathrow April 1980s Tmax normal,https://en.wikipedia.org/wiki/1981_Brixton_riot,era4_1970_2000,very warm early spring interlude warm and sunny Friday evening,0 deaths; 324 injured. April 1981 in SE England notably mild; daily Tmax in 17-20 C range plausible.
1981_toxteth_riots,Toxteth riots,Liverpool,UK,53.41,-2.99,1981-07-03,1981-07-11,1,1,470,NA,18.5,NA,Met Office Crosby/Bidston July 1980s Tmax normal,https://en.wikipedia.org/wiki/1981_Toxteth_riots,era4_1970_2000,short hot summer of 1981,1 killed; ~470 injured. Documented as part of short hot summer of 1981. Qualitative sign: positive anomaly.
1982_hama_massacre,Hama massacre,Hama,Syria,35.13,36.75,1982-02-02,1982-02-28,5000,40000,NA,NA,13.5,NA,DWD/WMO Aleppo OSAP Feb Tmax normal,https://en.wikipedia.org/wiki/1982_Hama_massacre,era4_1970_2000,NA,"5,000-40,000 killed. Government-led siege not popular uprising - included with caveat. Operation began 02:00 local Feb 2. Winter."
1985_handsworth_riots,Handsworth riots,Birmingham,UK,52.49,-1.90,1985-09-09,1985-09-11,2,2,80,NA,18.4,NA,Met Office Birmingham KBHX Sept 1980s Tmax normal,https://en.wikipedia.org/wiki/1985_Handsworth_riots,era4_1970_2000,days were warm and sunny,2 killed; ~80 injured. Source explicitly notes warm and sunny - large crowds gathered.
1985_broadwater_farm,Broadwater Farm riot,London,UK,51.51,-0.13,1985-10-06,1985-10-07,1,1,300,NA,14.5,NA,Met Office Heathrow Oct 1980s Tmax normal,https://en.wikipedia.org/wiki/Broadwater_Farm_riot,era4_1970_2000,rain fell during the night,1 killed; ~300 injured. Rain fell during the night helping end the riot. Modest anomaly likely.
1989_tiananmen,Tiananmen Square crackdown,Beijing,China,39.90,116.41,1989-06-03,1989-06-04,1000,3000,10000,NA,30.0,NA,CMA Beijing-Capital ZBAA June 1980s Tmax normal,https://en.wikipedia.org/wiki/1989_Tiananmen_Square_protests_and_massacre,era4_1970_2000,delightful spring weather,"Hundreds-thousands killed; 7,000-10,000 injured. Late spring/early summer in N China; warm. Crackdown began night of June 3."
1989_romanian_revolution,Romanian Revolution,Bucharest,Romania,44.43,26.10,1989-12-16,1989-12-25,1104,1104,3352,NA,1.5,NA,INMH Bucharest-Otopeni LRBS Dec 1980s Tmax normal,https://en.wikipedia.org/wiki/Romanian_revolution,era4_1970_2000,mild winter day warm and beautiful blue skies no snow (Dec 21 Bucharest); cold and rainy (Dec 15 Timisoara),"1,104 killed; 3,352 injured. ANTI-HEAT CASE: winter. Mild-for-the-month anomaly plausible for Bucharest."
1991_crown_heights,Crown Heights riot,New York,USA,40.71,-74.01,1991-08-19,1991-08-21,2,2,190,NA,28.5,NA,NOAA Central Park KNYC Aug 1990s Tmax normal,https://en.wikipedia.org/wiki/Crown_Heights_riot,era4_1970_2000,hot August night,2 killed; ~190 injured. Aug 1991 NYC ran warm; Tmax in low-30s C plausible.
1992_algiers_airport,Battle of Algiers / GIA flashpoint (Algiers airport bombing),Algiers,Algeria,36.75,3.06,1992-08-26,1992-08-26,9,9,128,NA,30.8,NA,ONM Algiers-Houari Boumediene DAAG Aug 1990s Tmax normal,https://en.wikipedia.org/wiki/Algerian_Civil_War,era4_1970_2000,NA,9 killed; 128 injured. Mid-summer Mediterranean heat; heat-consistent case.
1992_la_riots,LA Riots (Rodney King),Los Angeles,USA,34.05,-118.24,1992-04-29,1992-05-04,63,63,2300,NA,21.5,NA,NOAA LAX KLAX GHCND:USW00023174 April 1990s Tmax normal,https://en.wikipedia.org/wiki/1992_Los_Angeles_riots,era4_1970_2000,warm spring day,"KEY TEST CASE. Verdict came at 15:15 PDT Apr 29; violence by 17:30. Peak rioting Apr 30. Cumulative >=63 deaths by May 4; ~2,300 injured. Anecdotally a warm spring day; needs primary verification."
1993_mogadishu_black_hawk,Battle of Mogadishu (Black Hawk Down),Mogadishu,Somalia,2.04,45.34,1993-10-03,1993-10-04,315,1500,873,NA,31.0,NA,Mogadishu HCMM Oct Tmax normal,https://en.wikipedia.org/wiki/Battle_of_Mogadishu_(1993),era4_1970_2000,NA,~18 US + 1 UN + 315-1500 Somali killed; ~73 US + 800 Somali injured. Military engagement not uprising - included with caveat. Tropical coastal; warm year-round.
1994_rwandan_genocide,Rwandan genocide (onset),Kigali,Rwanda,-1.94,30.06,1994-04-06,1994-07-15,800000,800000,NA,NA,26.0,NA,RMA Kigali HRYR April Tmax normal,https://en.wikipedia.org/wiki/Rwandan_genocide,era4_1970_2000,NA,"~800,000 total over 100 days. CAVEAT: organised state-directed genocide not popular uprising. Equatorial highland climate: temperature near-constant year-round."
1997_albania_unrest,Albania civil unrest,Tirana,Albania,41.33,19.82,1997-03-01,1997-08-15,2000,2000,NA,NA,13.5,NA,IGEWE Tirana LATI March 1990s Tmax normal,https://en.wikipedia.org/wiki/1997_Albanian_civil_unrest,era4_1970_2000,NA,"~2,000 killed. State of emergency March 2; large rebellion early March is cool-spring case. Continued violence through summer is heat-consistent."
1998_indonesia_riots,May 1998 Indonesia riots,Jakarta,Indonesia,-6.21,106.85,1998-05-13,1998-05-14,1000,1200,NA,NA,32.4,NA,BMKG Jakarta-Halim WIHH May 1990s Tmax normal,https://en.wikipedia.org/wiki/May_1998_Indonesia_riots,era4_1970_2000,NA,"~1,000-1,200 killed. Tropical; high baseline. Diurnal variation small. Strongly El Nino-affected year (warm anomaly globally)."
2001_cincinnati_riots,Cincinnati riots (Timothy Thomas),Cincinnati,USA,39.10,-84.51,2001-04-09,2001-04-13,0,0,50,NA,19.5,NA,Cincinnati Apr Tmax normal ~19-20 C; wunderground/timeanddate blocked,https://en.wikipedia.org/wiki/Cincinnati_riots_of_2001,era5_2000_2026,NA,"0 fatalities; 800 curfew arrests; ~50 hospital treatments (mostly rubber-bullet). Daily Tmax for Apr 9-13 2001 not retrieved."
2005_paris_banlieue_riots,Paris/banlieue riots (Zyed-Bouna),Paris,France,48.86,2.35,2005-10-27,2005-11-17,3,3,126,NA,16.5,NA,Paris October Tmax mean ~16-17 C from WeatherSpark,https://en.wikipedia.org/wiki/2005_French_riots,era5_2000_2026,cool and wet,"1 bystander Le Chenadec + 2 youths whose deaths sparked it; 126 police/fire injured; ~8000 vehicles burned. Late-Oct/early-Nov France 2005 cool and wet."
2008_athens_greek_riots,Greek riots (Grigoropoulos),Athens,Greece,37.98,23.73,2008-12-06,2008-12-20,0,0,20,NA,14.0,NA,Athens Dec Tmax normal ~13.8-14 C from WeatherSpark,https://en.wikipedia.org/wiki/2008_Greek_riots,era5_2000_2026,the weather was good (Dec 6),"0 directly (Grigoropoulos shot by police); 20+ injured. Mid-winter event."
2009_iran_green_movement,Iran Green Movement,Tehran,Iran,35.69,51.39,2009-06-13,2009-12-31,36,200,4000,NA,33.0,NA,Tehran June Tmax normal ~32-34 C from WeatherSpark,https://en.wikipedia.org/wiki/2009_Iranian_presidential_election_protests,era5_2000_2026,NA,"36 official; opposition claimed 72-200; 4000+ detained. Neda Agha-Soltan shot 2009-06-20. Hot but exact daily reading not retrieved."
2010_tunisian_revolution,Tunisian Revolution (Jasmine),Tunis,Tunisia,36.81,10.18,2010-12-17,2011-01-14,129,338,2147,NA,16.0,NA,Tunis Dec-Jan Tmax normal ~16-17 C from Weather-Atlas,https://english.alarabiya.net/News/north-africa/2021/03/20/Tunisia-revolution-129-died-634-injured-official-count-shows,era5_2000_2026,NA,129 official / 338 preliminary deaths; 634 official / 2147 preliminary injured. Bouazizi self-immolated Dec 17 in Sidi Bouzid. Winter event.
2011_egyptian_revolution,Egyptian Revolution (Day of Rage),Cairo,Egypt,30.04,31.24,2011-01-25,2011-02-11,846,846,6000,NA,19.0,NA,Cairo Jan Tmax normal ~19 C from Holiday-Weather,https://en.wikipedia.org/wiki/Egyptian_revolution_of_2011,era5_2000_2026,sunny but chilly Tuesday,~846 nationwide (Mubarak fell Feb 11); 6000+ injured. Nights cold. Mid-winter event.
2011_libyan_civil_war,Libyan Civil War (start),Benghazi,Libya,32.12,20.07,2011-02-15,2011-02-17,24,24,NA,NA,17.0,NA,Benghazi Feb Tmax normal ~17 C from weatherandclimate,https://www.hrw.org/news/2011/02/17/libya-security-forces-fire-day-anger-demonstrations,era5_2000_2026,NA,"24+ on Feb 17 alone; thousands by end of war; many injured. Winter event."
2011_syrian_uprising,Syrian uprising (Daraa boys),Daraa,Syria,32.62,36.10,2011-03-15,2011-03-25,500000,500000,NA,NA,19.0,NA,Daraa March Tmax normal ~18-19 C from Weather-Atlas,https://en.wikipedia.org/wiki/Timeline_of_the_Syrian_civil_war_(January%E2%80%93April_2011),era5_2000_2026,cool and rainy (March 2011),Several killed in first weeks; >500k war total. Arrests of schoolboys writing slogans 2011-03-06; mass Daraa protests escalated 2011-03-18.
2011_yemeni_uprising,Yemeni uprising,Sanaa,Yemen,15.37,44.19,2011-01-27,2012-02-27,2000,2000,NA,NA,20.5,NA,Sanaa Jan/Feb Tmax normal ~20-21 C from Weather-Atlas,https://www.cjpme.org/fs_110,era5_2000_2026,NA,"2000+ killed; many injured. Cool nights (~10 C). Winter event. Presidency transferred Feb 2012."
2011_bahrain_pearl,Bahrain uprising (Pearl Roundabout),Manama,Bahrain,26.23,50.59,2011-02-14,2011-03-18,30,30,NA,NA,21.0,NA,Manama Feb Tmax normal ~21 C from WeatherSpark,https://en.wikipedia.org/wiki/Pearl_Roundabout,era5_2000_2026,mildly cool,At least 4 civilians killed Feb 17; full cycle ~30+. Gulf winter.
2011_england_riots,2011 England riots,London,UK,51.51,-0.13,2011-08-06,2011-08-11,5,5,200,NA,22.5,NA,Met Office Aug 2011 summary: relatively cool unsettled month; no heatwave,https://en.wikipedia.org/wiki/2011_England_riots,era5_2000_2026,cool and unsettled (Met Office),"5 killed; ~200 injured (incl. 186 police, 10 firefighters). Heatwave-triggered riots narrative NOT supported by Met Office monthly summary."
2011_occupy_wall_street,Occupy Wall Street eviction,New York,USA,40.71,-74.01,2011-11-15,2011-11-15,0,0,200,NA,12.0,NA,NYC Central Park Nov Tmax normal ~12 C from WeatherSpark,https://en.wikipedia.org/wiki/Occupy_Wall_Street,era5_2000_2026,NA,0 deaths; dozens injured; ~200 arrests. Daily reading for Nov 15 2011 not retrievable.
2014_euromaidan,Maidan / Euromaidan peak,Kyiv,Ukraine,50.45,30.52,2014-02-18,2014-02-20,108,121,1500,-1.0,-1.0,0.0,Kyiv Feb Tmax normal ~-1 C; Feb 2014 had near-normal temps,https://en.wikipedia.org/wiki/Euromaidan,era5_2000_2026,near-normal Feb temperatures,"~108 protesters + ~13 police whole Maidan; 48 killed Feb 20 alone (Bloody Thursday); 1500+ injured. Cold-month event; anomaly ~0."
2014_ferguson_first,Ferguson unrest (first wave),Ferguson,USA,38.74,-90.30,2014-08-09,2014-08-25,1,1,30,NA,31.5,NA,St Louis Aug Tmax normal ~31-32 C from WeatherSpark,https://en.wikipedia.org/wiki/Ferguson_unrest,era5_2000_2026,NA,1 killed (Michael Brown by police - the trigger); dozens injured. Second wave Nov 24 2014 cooler - listed below.
2014_ferguson_grand_jury,Ferguson unrest (post-grand-jury),Ferguson,USA,38.74,-90.30,2014-11-24,2014-12-02,0,0,30,NA,11.0,NA,St Louis Nov Tmax normal ~10-11 C from WeatherSpark,https://en.wikipedia.org/wiki/Ferguson_unrest,era5_2000_2026,NA,0 in unrest; dozens injured. Wilson non-indictment announcement Nov 24 2014 - late-fall/early-winter context.
2015_baltimore_freddie_gray,Baltimore (Freddie Gray),Baltimore,USA,39.29,-76.61,2015-04-25,2015-04-28,0,0,20,NA,19.5,NA,Baltimore Apr Tmax normal ~19-20 C from NWS,https://en.wikipedia.org/wiki/2015_Baltimore_protests,era5_2000_2026,NA,0 in unrest (Freddie Gray died Apr 19); ~20 police+civilians injured. Riots began afternoon Apr 27 after funeral.
2017_charlottesville,Charlottesville Unite the Right,Charlottesville,USA,38.03,-78.48,2017-08-11,2017-08-12,3,3,35,NA,29.5,NA,Charlottesville Aug Tmax normal ~29-30 C; 2017 Aug Virginia near normal,https://en.wikipedia.org/wiki/Unite_the_Right_rally,era5_2000_2026,NA,1 (Heather Heyer) + 2 state troopers (helicopter) killed; ~35 in car attack + dozens more injured.
2019_hong_kong_june_12,Hong Kong protests (Jun 12 storming),Hong Kong,China,22.32,114.17,2019-06-12,2019-06-12,0,0,72,NA,30.0,NA,HKO June 2019 summary: trough of low pressure with heavy downpours; >160mm rain Jun 11-13,https://en.wikipedia.org/wiki/12_June_2019_Hong_Kong_protest,era5_2000_2026,heavy downpours trough of low pressure,0 on day (1 fall-death Jun 15); 72+ on Jun 12. Likely cooler than typical June day. Anomaly probably negative.
2019_hong_kong_polyu,Hong Kong PolyU siege,Hong Kong,China,22.32,114.17,2019-11-17,2019-11-29,0,0,300,NA,23.5,NA,HK November Tmax normal ~23-24 C from WeatherSpark,https://en.wikipedia.org/wiki/2019_Hong_Kong_Polytechnic_University_campus_conflict,era5_2000_2026,NA,0 in siege; ~300 sent to hospitals; 1300 arrests.
2019_iraq_tishreen,Iraqi Tishreen protests,Baghdad,Iraq,33.31,44.36,2019-10-01,2020-10-25,600,600,20000,NA,33.5,NA,Baghdad early-Oct Tmax normal ~33-35 C from WeatherSpark,https://en.wikipedia.org/wiki/2019%E2%80%932021_Iraqi_protests,era5_2000_2026,NA,~600 killed first 6 months; 20000+ injured. Recurring through 2020.
2019_chile_estallido,Chile estallido social,Santiago,Chile,-33.45,-70.67,2019-10-18,2020-03-15,34,34,3349,NA,22.0,NA,Santiago Oct Tmax normal ~22 C from WeatherSpark,https://en.wikipedia.org/wiki/Social_Outburst_(Chile),era5_2000_2026,NA,"34+ killed; 3349+ injured (INDH); 440 with eye injuries. Southern-hemisphere spring; curfew declared Oct 19."
2019_lebanon_thawra,Lebanon thawra,Beirut,Lebanon,33.89,35.50,2019-10-17,2020-08-04,2,2,30,NA,27.0,NA,Beirut Oct Tmax normal ~27 C from WeatherSpark,https://en.wikipedia.org/wiki/17_October_Revolution,era5_2000_2026,NA,2 killed (car crash; Hezbollah/Amal contested); tens injured in clashes. Port blast Aug 4 context.
2020_george_floyd_minneapolis,George Floyd protests / 2020 unrest (Minneapolis epicenter),Minneapolis,USA,44.98,-93.27,2020-05-26,2020-06-01,2,20,1000,27.0,22.5,4.5,"Minnesota DNR climate journal: dew points in upper 60s and temperatures above 80 F spread into southern and eastern Minnesota on May 26 2020",https://en.wikipedia.org/wiki/George_Floyd_protests_in_Minneapolis%E2%80%93Saint_Paul,era5_2000_2026,>80 F with dew points in upper 60s,~20 nationwide across all 2020 protest unrest; ~2 directly Mpls 3rd Precinct burning; 1000s of arrests. Substantial positive anomaly.
2021_capitol_storming,Capitol storming,Washington,USA,38.91,-77.04,2021-01-06,2021-01-06,5,5,140,4.0,7.0,-3.0,"DC observed Jan 6 2021 high 39 F (~4 C), low 28 F (~-2 C), gusty NNW winds",https://en.wikipedia.org/wiki/January_6_United_States_Capitol_attack,era5_2000_2026,seasonable temperatures and gusty winds,5 killed; ~140 police injured. Slightly cooler than seasonal mean. Mid-winter event.
2022_kazakhstan_bloody_january,Kazakhstan unrest (Bloody January),Almaty,Kazakhstan,43.26,76.93,2022-01-02,2022-01-11,238,238,4500,NA,-1.0,NA,Almaty Jan Tmax normal ~-1 C from WeatherSpark,https://en.wikipedia.org/wiki/2022_Kazakh_unrest,era5_2000_2026,NA,238+ killed (govt revised; opposition higher); 4500+ injured. Nights ~-8 C. Mid-winter event.
2022_sri_lanka_aragalaya,Sri Lanka aragalaya (palace storming),Colombo,Sri Lanka,6.93,79.86,2022-07-09,2022-07-13,9,10,30,NA,29.0,NA,Colombo July Tmax normal ~29-30 C from WeatherSpark,https://en.wikipedia.org/wiki/2022_Sri_Lankan_protests,era5_2000_2026,NA,~9-10 total aragalaya cycle; 0 directly in Jul 9 storming; dozens injured.
2022_iran_mahsa_amini,Iran Mahsa Amini protests,Tehran,Iran,35.69,51.39,2022-09-16,2023-03-31,500,500,20000,NA,31.0,NA,Tehran Sep Tmax normal ~31-32 C from WeatherSpark,https://en.wikipedia.org/wiki/Mahsa_Amini_protests,era5_2000_2026,NA,500+ killed (rights groups; higher unofficial); 20000+ arrests.
2023_france_nahel_riots,France Nahel Merzouk riots,Nanterre,France,48.89,2.21,2023-06-27,2023-07-04,1,1,700,25.0,23.5,1.5,"Paris Jun 27 2023 high 77 F (~25 C); Jun 28 78 F (~25.5 C)",https://en.wikipedia.org/wiki/Nahel_Merzouk_riots,era5_2000_2026,mildly above normal,1 (stray-bullet death French Guiana Jun 30); 700+ police injured. Paris June Tmax normal ~23-24 C.
2024_new_caledonia_riots,New Caledonia riots,Noumea,New Caledonia,-22.27,166.46,2024-05-13,2024-05-31,13,13,300,24.0,22.5,1.5,"Noumea May 13 forecast 74 F / 69 F; May 14 76 F / 69 F; May 15 77 F / 70 F",https://en.wikipedia.org/wiki/2024_New_Caledonia_unrest,era5_2000_2026,near normal,13+ killed; 300+ injured by end of Day 1. Southern-hemisphere late autumn. Near normal.
2024_bangladesh_july_uprising,Bangladesh student uprising / July Massacre,Dhaka,Bangladesh,23.81,90.41,2024-07-15,2024-08-05,650,1400,3000,NA,31.5,NA,Dhaka Jul Tmax normal ~31-32 C from WeatherSpark (monsoon very humid),https://en.wikipedia.org/wiki/July_Uprising,era5_2000_2026,NA,650 OHCHR Jul 16-Aug 11; UN later estimated up to 1400. Hasina resigned Aug 5. 5 dead Jul 16; 11+ killed in Rampura Jul 19.
